City_ID,City,Lat,Lng,Max Temp,Humidity,Cloudiness,Wind Speed,Country,Date
0,smithers,54.7804,-127.1743,15.18,47,75,1.54,CA,1697329724
1,port mathurin,-19.6833,63.4167,22.67,69,0,4.78,MU,1697329724
2,adamstown,-25.066,-130.1015,21.38,78,97,2.61,PN,1697329725
3,qaqortoq,60.7167,-46.0333,3.7,68,18,1.32,GL,1697329427
4,port-aux-francais,-49.35,70.2167,0.38,69,84,12.26,TF,1697329725
5,aykhal,66.0,111.5,-11.07,92,43,0.89,RU,1697329725
6,puerto natales,-51.7236,-72.4875,6.32,77,93,4.39,CL,1697329725
7,prado,-17.3411,-39.2208,23.57,92,92,2.19,BR,1697329726
8,francistown,-21.17,27.5079,21.02,69,61,6.53,BW,1697329726
9,gobabis,-22.45,18.9667,21.76,13,94,3.96,NA,1697329726
10,sarny,51.338,26.6019,14.42,80,67,2.84,UA,1697329429
11,minas de marcona,-15.2119,-75.1103,15.92,72,82,3.89,PE,1697329429
12,yellowknife,62.456,-114.3525,10.23,88,20,6.17,CA,1697329553
13,kodiak,57.79,-152.4072,7.73,76,75,4.63,US,1697329429
14,alofi,-19.0595,-169.9187,27.94,61,40,6.17,NU,1697329727
15,luderitz,-26.6481,15.1594,13.24,95,21,1.51,NA,1697329727
16,st. john's,47.5649,-52.7093,12.31,98,75,6.17,CA,1697329446
17,papatowai,-46.5619,169.4708,11.13,59,100,6.43,NZ,1697329727
18,tura,25.5198,90.2201,19.86,79,0,1.21,IN,1697329727
19,hawaiian paradise park,19.5933,-154.9731,28.91,75,0,4.12,US,1697329728
20,invercargill,-46.4,168.35,10.57,77,97,6.26,NZ,1697329728
21,al ghayzah,16.2079,52.176,25.6,79,5,1.5,YE,1697329728
22,olonkinbyen,70.9221,-8.7187,-2.17,84,99,9.39,SJ,1697329431
23,west island,-12.1568,96.8225,25.99,78,75,6.69,CC,1697329729
24,la ronge,55.1001,-105.2842,9.14,57,40,3.6,CA,1697329730
25,san patricio,28.017,-97.5169,25.92,33,21,3.25,US,1697329730
26,enewetak,11.3474,162.3373,28.49,72,90,2.75,MH,1697329431
27,grytviken,-54.2811,-36.5092,-3.65,81,40,5.13,GS,1697329730
28,nova vicosa,-17.8919,-39.3719,24.15,90,94,2.58,BR,1697329731
29,molde,62.7375,7.1591,6.91,76,75,4.12,NO,1697329731
30,bilibino,68.0546,166.4372,-7.25,94,98,0.53,RU,1697329731
31,lompoc,34.6391,-120.4579,27.23,74,0,6.71,US,1697329731
32,calabozo,8.9242,-67.4293,28.74,65,76,1.58,VE,1697329732
33,new norfolk,-42.7826,147.0587,11.72,71,97,3.16,AU,1697329432
34,hermanus,-34.4187,19.2345,15.41,79,86,8.27,ZA,1697329732
35,atafu village,-8.5421,-172.5159,28.71,75,57,8.9,TK,1697329733
36,island harbour,50.724,-1.2758,7.74,89,1,4.87,GB,1697329733
37,albany,42.6001,-73.9662,10.23,82,100,0.36,US,1697329586
38,kose,40.21,39.6511,8.26,34,48,1.45,TR,1697329734
39,blackmans bay,-43.0167,147.3167,11.07,80,99,0.45,AU,1697329734
40,mermoz boabab,14.7065,-17.4758,28.88,84,0,2.06,SN,1697329735
41,ribeira grande,38.5167,-28.7,21.54,92,98,6.71,PT,1697329735
42,mugia,43.1041,-9.2179,15.51,83,97,4.81,ES,1697329736
43,longyearbyen,78.2186,15.6401,-0.09,80,75,9.77,SJ,1697329736
44,udachny,66.4167,112.4,-10.86,85,7,1.3,RU,1697329457
45,santo amaro,-12.5467,-38.7119,22.44,93,17,2.24,BR,1697329737
46,lorengau,-2.0226,147.2712,29.28,70,96,1.02,PG,1697329737
47,waitangi,-43.9535,-176.5597,12.59,88,2,10.22,NZ,1697329737
48,bethel,41.3712,-73.414,9.75,88,100,2.12,US,1697329737
49,sisimiut,66.9395,-53.6735,-3.78,80,18,4.43,GL,1697329738
50,tazovsky,67.4667,78.7,2.26,99,100,2.14,RU,1697329738
51,prince rupert,54.3161,-130.3201,13.05,94,40,2.06,CA,1697329738
52,cill airne,52.05,-9.5167,7.67,77,70,0.4,IE,1697329738
53,aasiaat,68.7098,-52.8699,-3.79,70,100,1.93,GL,1697329738
54,chonchi,-42.6128,-73.8092,8.56,89,88,1.61,CL,1697329738
55,tiksi,71.6872,128.8694,-11.72,95,100,3.67,RU,1697329738
56,jamestown,42.097,-79.2353,7.79,98,100,5.14,US,1697329629
57,edinburgh of the seven seas,-37.0676,-12.3116,14.81,96,100,10.74,SH,1697329739
58,newman,37.3138,-121.0208,29.05,21,95,1.34,US,1697329739
59,langford,48.4496,-123.5026,14.67,87,100,1.54,CA,1697329739
60,margaret river,-33.95,115.0667,16.09,56,0,4.67,AU,1697329552
61,stanley,54.868,-1.6985,2.25,82,0,3.09,GB,1697329739
62,ushuaia,-54.8,-68.3,7.81,66,40,9.77,AR,1697329647
63,auki,-8.7676,160.7034,29.95,67,31,0.66,SB,1697329740
64,wanning,18.8003,110.3967,24.5,85,100,4.93,CN,1697329740
65,petropavlovsk-kamchatsky,53.0452,158.6483,7.33,88,40,2.24,RU,1697329740
66,borogontsy,62.6683,131.1683,-5.95,73,94,1.34,RU,1697329740
67,east london,-33.0153,27.9116,15.25,82,96,2.84,ZA,1697329740
68,porto novo,6.4965,2.6036,26.9,89,95,1.86,BJ,1697329741
69,ilhabela,-23.7781,-45.3581,19.55,92,100,5.28,BR,1697329618
70,posse,-14.0931,-46.3694,29.69,34,100,4.05,BR,1697329727
71,labuan,5.2767,115.2417,29.2,79,20,1.54,MY,1697329741
72,san antonio de pale,-1.4014,5.6325,25.79,84,94,7.81,GQ,1697329741
73,aginskoye,51.1,114.53,0.28,65,7,2.58,RU,1697329741
74,gaiman,-43.2897,-65.4929,15.44,47,43,3.87,AR,1697329742
75,isafjordur,66.0755,-23.124,2.38,95,100,4.79,IS,1697329742
76,mount isa,-20.7333,139.5,30.87,10,2,6.17,AU,1697329742
77,bogoroditsk,53.7717,38.1241,13.73,60,83,7.65,RU,1697329742
78,coquimbo,-29.9533,-71.3436,13.85,88,40,3.09,CL,1697329742
79,port elizabeth,-33.918,25.5701,12.95,96,40,1.03,ZA,1697329743
80,talnakh,69.4865,88.3972,1.23,89,100,2.52,RU,1697329743
81,labytnangi,66.6572,66.4183,-2.89,84,52,3.5,RU,1697329743
82,colonia,50.9333,6.95,9.36,85,0,2.57,DE,1697329743
83,karasburg,-28.0167,18.75,14.16,55,12,5.54,NA,1697329743
84,nuuk,64.1835,-51.7216,2.34,100,100,7.72,GL,1697329743
85,lethem,3.3803,-59.7968,28.15,62,94,2.88,GY,1697329744
86,nyurba,63.2842,118.3319,-12.16,92,29,1.79,RU,1697329744
87,kailua-kona,19.6406,-155.9956,30.33,74,40,4.63,US,1697329744
88,kerrville,30.0474,-99.1403,21.99,34,0,2.06,US,1697329686
89,puerto ayora,-0.7393,-90.3518,24.75,93,83,2.68,EC,1697329744
90,horta,38.5333,-28.6333,21.12,92,99,6.71,PT,1697329744
91,wailua homesteads,22.0669,-159.378,28.44,65,0,7.2,US,1697329745
92,medicine hat,50.0501,-110.6683,14.24,51,40,5.14,CA,1697329745
93,whitehorse,60.7161,-135.0538,11.43,63,75,8.23,CA,1697329546
94,polyarnyy,69.1989,33.4478,2.1,97,100,12.44,RU,1697329745
95,aripuana,-9.1667,-60.6333,24.59,81,90,0.26,BR,1697329745
96,carnarvon,-24.8667,113.6333,27.44,33,0,5.67,AU,1697329745
97,iqaluit,63.7506,-68.5145,-1.15,86,75,3.09,CA,1697329746
98,thompson,55.7435,-97.8558,7.09,87,20,1.54,CA,1697329558
99,badger,64.8,-147.5333,5.95,81,40,2.57,US,1697329746
100,labrador city,52.9463,-66.9114,5.95,100,100,8.23,CA,1697329746
101,ji'an,27.1172,114.9793,19.01,71,0,0.05,CN,1697329746
102,barcelos,41.5388,-8.6151,19.91,84,96,1.31,PT,1697329747
103,bredasdorp,-34.5322,20.0403,14.31,80,64,6.23,ZA,1697329747
104,san luis de la loma,17.2706,-100.8939,27.7,88,61,2.63,MX,1697329747
105,holualoa,19.6228,-155.9522,28.26,74,40,4.63,US,1697329747
106,dudinka,69.4058,86.1778,1.49,93,100,6.71,RU,1697329747
107,dabola,10.75,-11.1167,22.44,93,99,1.67,GN,1697329747
108,naivasha,-0.7167,36.4359,16.72,87,56,0.99,KE,1697329748
109,gorontalo,0.5412,123.0595,30.15,63,25,1.86,ID,1697329748
110,utrik,11.2278,169.8474,28.2,77,46,4.99,MH,1697329748
111,college,64.8569,-147.8028,6.0,79,100,2.57,US,1697329748
112,kainantu,-6.2887,145.8655,21.51,79,79,0.99,PG,1697329748
113,mahanoro,-19.9,48.8,23.08,97,63,2.68,MG,1697329749
114,al kharijah,25.4514,30.5464,23.08,35,0,2.97,EG,1697329749
115,tralee,52.2704,-9.7026,8.94,78,95,1.91,IE,1697329624
116,puerto aysen,-45.4,-72.7,5.79,99,85,1.89,CL,1697329749
117,golpayegan,33.4537,50.2884,12.59,42,0,0.12,IR,1697329749
118,forster,-32.1667,152.5167,22.94,52,0,2.77,AU,1697329750
119,iwase,36.35,140.1,16.8,96,100,2.8,JP,1697329750
120,ketchikan,55.3422,-131.6461,12.26,94,100,5.14,US,1697329750
121,georgetown,5.4112,100.3354,26.68,89,40,2.24,MY,1697329567
122,chapada dos guimaraes,-15.4606,-55.7497,27.81,58,90,2.08,BR,1697329750
123,altinekin,38.3078,32.8686,12.31,37,38,1.73,TR,1697329751
124,dzuunharaa,48.8523,106.4579,2.04,58,3,1.5,MN,1697329751
125,haiku-pauwela,20.9219,-156.3051,28.01,63,40,6.17,US,1697329751
126,ola,59.5833,151.2833,-1.44,62,98,1.61,RU,1697329751
127,anadyr,64.75,177.4833,2.28,80,100,3.0,RU,1697329751
128,lihue,21.9789,-159.3672,28.77,65,0,7.2,US,1697329680
129,vilyuchinsk,52.9306,158.4028,8.15,90,100,2.04,RU,1697329752
130,salekhard,66.53,66.6019,-2.95,85,37,3.82,RU,1697329457
131,formosa,-26.1775,-58.1781,22.2,72,0,3.09,AR,1697329648
132,midvagur,62.0511,-7.1939,2.46,60,100,5.66,FO,1697329752
133,iskateley,67.6803,53.1512,-2.21,93,28,1.79,RU,1697329752
134,tazacorte,28.629,-17.9293,28.42,24,0,4.92,ES,1697329753
135,vorgashor,67.5833,63.95,-1.37,90,100,4.23,RU,1697329753
136,klyuchi,52.2667,79.1667,6.97,58,100,4.31,RU,1697329753
137,melfort,52.8667,-104.6177,9.07,53,36,4.63,CA,1697329753
138,avarua,-21.2078,-159.775,24.03,78,75,6.69,CK,1697329753
139,mukalla,14.5425,49.1242,26.33,73,8,1.94,YE,1697329753
140,as safirah,36.077,37.3725,24.14,39,57,4.54,SY,1697329754
141,lebu,-37.6167,-73.65,9.9,78,43,8.18,CL,1697329754
142,kavieng,-2.5744,150.7967,28.85,71,77,1.72,PG,1697329754
143,tchintabaraden,15.8969,5.7985,29.97,18,7,3.72,NE,1697329452
144,hamilton,39.1834,-84.5333,12.07,91,100,3.58,US,1697329279
145,callao,-12.0667,-77.15,20.95,77,75,5.66,PE,1697329452
146,koungou,-12.7336,45.2042,26.84,83,40,4.12,YT,1697329452
147,as sulayyil,20.4607,45.5779,26.14,22,0,2.01,SA,1697329453
148,hollymead,38.1171,-78.4417,16.85,95,87,1.59,US,1697329453
149,bridlington,54.0831,-0.1919,5.01,80,3,1.79,GB,1697329453
150,necochea,-38.5473,-58.7368,14.68,56,77,7.76,AR,1697329453
151,bolnisi,41.4479,44.5384,8.77,74,0,1.23,GE,1697329453
152,carauari,-4.8828,-66.8958,27.33,63,36,0.99,BR,1697329453
153,hami,42.8,93.45,14.74,23,19,2.18,CN,1697329454
154,miyaly,48.8844,53.7836,11.97,72,73,3.4,KZ,1697329454
155,nort-sur-erdre,47.4333,-1.5,9.1,93,99,2.7,FR,1697329454
156,novi pazar,43.1367,20.5122,13.05,61,35,1.37,RS,1697329454
157,montagu,-40.7667,144.9667,10.47,71,100,6.2,AU,1697329454
158,quepos,9.4236,-84.1652,26.53,86,98,1.19,CR,1697329454
159,antsohihy,-14.8796,47.9875,25.38,85,22,0.84,MG,1697329455
160,kenai,60.5544,-151.2583,6.05,94,100,0.0,US,1697329455
161,vila franca do campo,37.7167,-25.4333,21.6,99,79,2.56,PT,1697329455
162,saipan,15.1355,145.701,29.39,84,20,3.6,MP,1697329455
163,cimitarra,6.3142,-73.9497,24.9,93,97,1.21,CO,1697329455
164,portland,45.5234,-122.6762,17.67,82,100,0.89,US,1697329472
165,pisco,-13.7,-76.2167,19.03,82,0,6.69,PE,1697329456
166,howard springs,-12.497,131.047,30.95,41,65,2.52,AU,1697329456
167,gadzhiyevo,69.2551,33.3362,1.93,97,100,12.42,RU,1697329757
168,uturoa,-16.7333,-151.4333,26.15,69,5,4.17,PF,1697329758
169,otofuke,42.9917,143.2003,12.53,62,59,0.39,JP,1697329758
170,weyburn,49.6668,-103.8511,7.12,53,43,3.6,CA,1697329758
171,bamboo flat,11.7,92.7167,25.05,100,20,0.51,IN,1697329758
172,bantogon,6.5333,124.0333,27.8,64,84,0.08,PH,1697329758
173,pimentel,-6.8367,-79.9342,21.16,78,0,7.2,PE,1697329758
174,north bend,43.4065,-124.2243,16.8,82,100,0.0,US,1697329759
175,cockburn town,21.4612,-71.1419,28.98,74,40,1.03,TC,1697329749
176,punta arenas,-53.15,-70.9167,7.06,70,0,7.2,CL,1697329759
177,siluko,6.5386,5.1609,24.28,99,76,1.1,NG,1697329759
178,yaren,-0.5472,166.916,28.66,71,57,2.32,NR,1697329759
179,tibro,58.4245,14.1616,7.85,84,67,2.24,SE,1697329760
180,caleta de carquin,-11.0925,-77.6267,19.42,85,96,4.15,PE,1697329760
181,dombarovskiy,50.7587,59.5386,5.56,83,70,3.58,RU,1697329760
182,susuman,62.7833,148.1667,-12.79,95,100,0.45,RU,1697329760
183,coronel suarez,-37.4547,-61.9334,15.63,33,100,5.19,AR,1697329760
184,mana,5.6592,-53.7767,27.54,83,48,5.87,GF,1697329760
185,saldanha,-33.0117,17.9442,18.03,70,79,6.01,ZA,1697329761
186,vilhena,-12.7406,-60.1458,25.12,66,53,1.66,BR,1697329761
187,mount gambier,-37.8333,140.7667,12.35,85,100,4.56,AU,1697329761
188,dobrovnik,46.6514,16.3525,16.63,73,86,5.26,SI,1697329761
189,pangody,65.85,74.4859,-0.23,89,100,4.68,RU,1697329761
190,brades,16.7918,-62.2106,28.78,73,91,4.68,MS,1697329762
191,bel ombre,-4.6167,55.4167,26.91,89,75,4.63,SC,1697329762
192,ambatolampy,-19.3833,47.4167,16.03,78,10,1.1,MG,1697329762
193,guarapari,-20.6667,-40.4975,21.61,93,100,4.16,BR,1697329762
194,el viejo,12.6633,-87.1672,26.48,87,59,1.37,NI,1697329762
195,nagqu,31.5,92.0,-3.68,66,24,1.85,CN,1697329763
196,tadine,-21.55,167.8833,24.55,76,66,4.75,NC,1697329763
197,mangalia,43.8,28.5833,16.48,85,0,4.01,RO,1697329763
198,havre,49.5833,0.3333,11.87,62,75,6.69,FR,1697329763
199,harstad,68.799,16.5293,3.97,82,100,8.49,NO,1697329763
200,byron bay,-28.65,153.6167,28.73,40,0,2.27,AU,1697329763
201,hood river,45.7054,-121.5215,17.77,81,100,1.54,US,1697329464
202,kruisfontein,-34.0033,24.7314,11.01,91,70,1.02,ZA,1697329764
203,san fernando de apure,7.8878,-67.4724,24.96,81,96,1.94,VE,1697329479
204,eldorado at santa fe,35.5264,-105.9347,19.25,24,0,3.6,US,1697329764
205,korla,41.7597,86.1469,14.07,32,6,1.06,CN,1697329764
206,sena madureira,-9.0656,-68.6569,26.23,70,76,1.55,BR,1697329764
207,la sarre,48.8002,-79.1996,6.47,89,100,5.14,CA,1697329765
208,coracora,-15.0333,-73.7833,12.27,66,92,2.17,PE,1697329765
209,primorsko-akhtarsk,46.0497,38.1747,14.43,50,0,3.58,RU,1697329765
210,divnoye,45.9089,43.3547,13.07,48,0,3.54,RU,1697329765
211,darzab,35.9774,65.3783,8.72,55,84,0.4,AF,1697329765
212,salinopolis,-0.6136,-47.3561,27.75,75,44,5.82,BR,1697329765
213,watertown,42.3709,-71.1828,12.73,78,0,2.24,US,1697329766
214,dunedin,-45.8742,170.5036,10.68,64,98,6.89,NZ,1697329766
215,shohimardon,39.9839,71.8028,0.43,41,0,0.49,UZ,1697329766
216,happy valley-goose bay,53.3168,-60.3315,9.17,87,100,8.75,CA,1697329766
217,plettenberg bay,-34.0527,23.3716,13.57,83,87,3.33,ZA,1697329766
218,ust-nera,64.5667,143.2,-13.21,93,100,1.34,RU,1697329766
219,san bernardo del viento,9.3533,-75.9524,27.17,82,94,2.17,CO,1697329767
220,mata-utu,-13.2816,-176.1745,27.45,77,59,7.66,WF,1697329680
221,bulayevo,54.9056,70.4439,3.64,92,61,3.79,KZ,1697329767
222,helena valley southeast,46.6153,-111.9216,14.41,66,20,0.89,US,1697329767
223,queenstown,-31.8976,26.8753,7.8,88,62,1.81,ZA,1697329767
224,naze,28.3667,129.4833,23.51,61,67,7.67,JP,1697329768
225,richards bay,-28.783,32.0377,17.96,67,86,6.99,ZA,1697329768
226,sanctuary point,-35.1114,150.629,21.22,38,40,1.55,AU,1697329768
227,tsiombe,-25.3,45.4833,22.3,86,88,1.74,MG,1697329769
228,geraldton,-28.7667,114.6,30.23,12,7,7.72,AU,1697329769
229,sittwe,20.15,92.9,23.49,89,10,2.94,MM,1697329770
230,argo,37.6333,22.7333,18.53,68,0,0.93,GR,1697329579
231,nar'yan-mar,67.6713,53.087,-2.16,93,30,1.79,RU,1697329770
232,kudahuvadhoo,2.6708,72.8944,27.12,73,54,2.61,MV,1697329771
233,cochin,9.9399,76.2602,24.99,92,100,0.97,IN,1697329771
234,camalu,30.85,-116.0667,22.26,64,5,4.25,MX,1697329771
235,rochelle,46.25,-1.0,11.05,76,0,4.63,FR,1697329772
236,okhotsk,59.3833,143.3,2.29,76,100,5.6,RU,1697329772
237,constantia,44.1833,28.65,13.38,84,0,4.95,RO,1697329772
238,khorixas,-20.3667,14.9667,16.23,38,75,1.81,NA,1697329772
239,oruro,-17.9833,-67.15,14.6,41,88,7.72,BO,1697329772
240,egilsstadir,65.2653,-14.3948,-4.05,80,75,0.0,IS,1697329773
241,wynyard,-41.0,145.7167,10.66,66,99,4.93,AU,1697329773
242,chibougamau,49.9168,-74.3659,6.79,81,100,4.63,CA,1697329774
243,ust'-ilimsk,58.0006,102.6619,4.69,74,100,4.02,RU,1697329774
244,weno,7.4515,151.8468,25.97,89,100,5.14,FM,1697329774
245,el burgo de osma,41.5862,-3.0652,10.97,90,19,0.73,ES,1697329775
246,carbonear,47.7332,-53.2148,12.57,96,85,3.39,CA,1697329775
247,bisenda buzurg,25.4167,80.6167,24.13,47,0,2.88,IN,1697329775
248,pocone,-16.2567,-56.6228,31.66,38,54,0.81,BR,1697329775
249,mineiros,-17.5694,-52.5511,26.85,55,85,1.53,BR,1697329775
250,arraial do cabo,-22.9661,-42.0278,20.66,85,100,6.71,BR,1697329643
251,alice springs,-23.7,133.8833,25.75,12,0,4.63,AU,1697329776
252,teresina,-5.0892,-42.8019,31.84,48,75,4.12,BR,1697329661
253,kapuskasing,49.4169,-82.4331,7.05,87,100,4.12,CA,1697329777
254,tanabe,33.7333,135.3667,21.56,78,20,5.14,JP,1697329779
255,madarounfa,13.3087,7.156,29.23,23,70,3.65,NE,1697329779
256,akureyri,65.6835,-18.0878,-3.04,86,75,0.51,IS,1697329779
257,kijang,35.2442,129.2139,15.85,52,0,3.62,KR,1697329779
258,papao,-17.75,-149.55,28.82,76,20,4.33,PF,1697329780
259,parabel',58.6978,81.4825,3.28,96,100,5.36,RU,1697329781
260,kenora,49.8167,-94.4337,7.54,76,20,1.03,CA,1697329565
261,broken hill,-31.95,141.4333,18.0,47,1,2.74,AU,1697329781
262,tual,-5.6667,132.75,26.75,84,59,8.1,ID,1697329781
263,pauini,-7.7136,-66.9764,23.74,92,85,1.14,BR,1697329782
264,rye,40.9807,-73.6837,10.96,89,100,2.06,US,1697329782
265,zelenoborskiy,66.845,32.3622,0.37,98,100,4.03,RU,1697329782
266,spring creek,40.7266,-115.5859,18.82,24,50,0.91,US,1697329782
267,fale old settlement,-9.3852,-171.2468,28.41,76,92,9.26,TK,1697329532
268,port alfred,-33.5906,26.891,16.47,78,88,0.78,ZA,1697329783
269,kerikeri,-35.2268,173.9474,20.62,49,71,4.42,NZ,1697329783
270,guichon,-32.35,-57.2,12.61,82,0,4.02,UY,1697329783
271,kalabo,-14.97,22.6814,20.76,77,75,3.05,ZM,1697329783
272,nova sintra,14.8667,-24.7167,25.49,79,100,4.69,CV,1697329783
273,kapa'a,22.0752,-159.319,29.18,65,0,7.2,US,1697329783
274,mejit,10.2753,170.8646,28.05,76,90,4.95,MH,1697329784
275,merizo village,13.2658,144.6691,29.85,85,100,4.62,GU,1697329784
276,umm kaddadah,13.6017,26.6876,30.95,19,51,7.57,SD,1697329784
277,choibalsan,48.0667,114.5,1.16,53,5,3.34,MN,1697329784
278,ponta delgada,37.7333,-25.6667,21.77,94,75,3.09,PT,1697329784
279,son la,21.3167,103.9,18.86,98,100,0.7,VN,1697329784
280,rabigh,22.7986,39.0349,28.71,71,0,1.06,SA,1697329785
281,zintan,31.9223,12.252,18.08,45,0,2.12,LY,1697329785
282,pitimbu,-7.4706,-34.8086,25.33,71,99,5.11,BR,1697329785
283,souillac,-20.5167,57.5167,18.21,88,20,3.09,MU,1697329785
284,mananjary,-21.2167,48.3333,23.28,97,70,1.68,MG,1697329785
285,kirishi,59.4471,32.0205,11.21,76,75,6.13,RU,1697329786
286,hun,29.1268,15.9477,21.62,36,0,3.1,LY,1697329786
287,vallenar,-28.5708,-70.7581,20.18,47,0,0.64,CL,1697329786
288,yeniseysk,58.4497,92.1703,6.08,70,100,2.24,RU,1697329786
289,ust'-kut,56.7938,105.7672,2.08,95,100,1.63,RU,1697329786
290,mundra,22.85,69.7333,26.14,73,0,4.32,IN,1697329787
291,panjab,34.388,67.0233,3.49,36,0,1.66,AF,1697329787
292,lalupon,7.4667,4.0667,23.6,98,100,1.32,NG,1697329787
293,miquelon,47.0975,-56.3814,10.0,74,60,6.28,PM,1697329787
294,mokshan,53.4365,44.6132,10.9,66,63,5.99,RU,1697329787
295,ryotsu-minato,38.0833,138.4333,18.93,60,100,3.82,JP,1697329788
296,xiaoweizhai,26.1903,107.5125,15.11,85,1,0.96,CN,1697329788
297,kavaratti,10.5669,72.642,26.61,81,93,5.38,IN,1697329788
298,harper,4.375,-7.7169,25.31,90,100,3.35,LR,1697329788
299,bayanhongor,46.7167,100.1167,1.66,51,92,0.92,MN,1697329788
300,oranjemund,-28.55,16.4333,14.49,93,70,3.78,NA,1697329788
301,mont-laurier,46.5501,-75.4993,8.79,85,92,3.66,CA,1697329789
302,ordynskoye,54.3656,81.8994,6.58,57,100,4.34,RU,1697329789
303,sambava,-14.2667,50.1667,24.07,91,90,1.98,MG,1697329789
304,corowa,-36.0333,146.3833,14.12,89,85,1.29,AU,1697329789
305,tannum sands,-23.9504,151.3693,29.3,57,61,4.63,AU,1697329789
306,urcos,-13.6861,-71.6228,14.94,70,87,2.45,PE,1697329789
307,kingston,17.997,-76.7936,29.53,90,20,1.54,JM,1697329762
308,taroa,8.7058,171.2275,27.94,76,61,3.97,MH,1697329790
309,trinity beach,-16.7888,145.6968,30.01,57,98,3.6,AU,1697329790
310,praia da vitoria,38.7333,-27.0667,21.53,83,40,3.38,PT,1697329790
311,brookings,44.3114,-96.7984,8.36,84,100,3.09,US,1697329790
312,xilin hot,43.9667,116.0333,3.13,44,3,2.98,CN,1697329791
313,kupang,-10.1667,123.5833,31.32,58,20,6.17,ID,1697329659
314,burley,42.5357,-113.7928,17.39,42,0,2.57,US,1697329791
315,atar,20.5169,-13.0499,30.8,15,6,4.31,MR,1697329791
316,kimbe,-5.5502,150.1429,28.92,78,38,1.02,PG,1697329791
317,koster,-25.863,26.8976,14.37,23,64,2.7,ZA,1697329792
318,banda aceh,5.5577,95.3222,26.19,82,100,2.62,ID,1697329792
319,singaparna,-7.3515,108.111,23.84,75,100,0.75,ID,1697329792
320,cabedelo,-6.9811,-34.8339,25.37,69,99,5.47,BR,1697329792
321,mariehamn,60.0973,19.9348,8.92,76,75,6.69,AX,1697329792
322,nogliki,51.8333,143.1667,7.97,77,30,5.36,RU,1697329793
323,ilulissat,69.2167,-51.1,-4.99,80,100,1.03,GL,1697329793
324,fredericksburg,38.3032,-77.4605,16.13,94,100,11.18,US,1697329793
325,sirjan,29.452,55.6814,17.95,33,4,0.71,IR,1697329793
326,yuzhno-kurilsk,44.0306,145.8556,14.1,69,97,1.49,RU,1697329793
327,tweed heads,-28.1817,153.547,30.11,65,1,4.12,AU,1697329625
328,namibe,-15.1961,12.1522,18.35,78,100,3.64,AO,1697329793
329,neuburg an der donau,48.7333,11.1833,7.9,84,67,3.06,DE,1697329794
330,nemuro,43.3236,145.575,15.32,66,84,2.36,JP,1697329794
331,fort bragg,35.139,-79.006,18.75,94,0,3.6,US,1697329794
332,shizuishan,39.2333,106.7694,12.86,30,0,1.96,CN,1697329794
333,svetlyy,54.675,20.1347,10.2,66,11,10.87,RU,1697329794
334,darnah,32.767,22.6367,22.04,73,0,5.39,LY,1697329794
335,kaitong,44.8135,123.15,10.46,25,0,7.82,CN,1697329795
336,kinango,-4.1372,39.3153,22.64,96,16,0.57,KE,1697329795
337,senillosa,-39.0,-68.4167,16.88,18,100,2.52,AR,1697329795
338,codrington,-38.2667,141.9667,12.28,82,100,5.52,AU,1697329795
339,mil'kovo,55.6078,37.7956,14.27,82,72,6.73,RU,1697329795
340,turmalina,-17.2856,-42.73,25.14,60,85,4.0,BR,1697329796
341,along,28.1667,94.7667,17.02,95,53,0.72,IN,1697329796
342,wewak,-3.5534,143.6268,29.43,69,55,1.02,PG,1697329796
343,antsiranana,-12.2787,49.2917,23.3,93,12,2.68,MG,1697329796
344,glace bay,46.1969,-59.957,10.44,95,75,2.57,CA,1697329796
345,quezon,7.7303,125.0989,26.3,83,76,0.38,PH,1697329796
346,kasama,-10.2129,31.1808,22.2,34,76,1.22,ZM,1697329797
347,verdello,45.6048,9.629,18.63,83,0,2.06,IT,1697329797
348,ouagadougou,12.3642,-1.5383,29.07,65,0,2.57,BF,1697329797
349,develi,38.3906,35.4922,5.64,63,1,1.47,TR,1697329797
350,uji,34.8833,135.8,20.61,71,99,2.22,JP,1697329797
351,port isabel,26.0734,-97.2086,25.04,68,0,6.26,US,1697329797
352,kiunga,-6.1219,141.2906,24.3,98,100,0.36,PG,1697329797
353,jiwani,25.05,61.7417,26.9,81,30,3.95,PK,1697329798
354,wajir,1.7471,40.0573,27.19,64,96,7.61,KE,1697329798
355,nazarovo,56.0064,90.3914,4.52,65,100,2.24,RU,1697329798
356,grand falls-windsor,48.9332,-55.6649,9.72,94,100,1.41,CA,1697329798
357,tanout,14.9709,8.8879,29.14,20,61,4.69,NE,1697329798
358,urengoy,65.9667,78.3667,1.17,97,99,1.79,RU,1697329799
359,tonghae,37.5439,129.1069,15.88,72,3,3.4,KR,1697329799
360,lago da pedra,-4.3333,-45.1667,27.76,64,82,3.59,BR,1697329799
361,sao fidelis,-21.6461,-41.7469,20.97,92,100,1.64,BR,1697329799
362,port shepstone,-30.7414,30.455,18.1,62,89,7.59,ZA,1697329799
363,nantucket,41.2835,-70.0995,12.78,93,100,2.06,US,1697329799
364,el granada,37.5027,-122.4694,24.4,77,100,7.2,US,1697329799
365,penalva,-3.2942,-45.1736,26.77,68,77,3.16,BR,1697329800
366,mawu,29.5923,107.3139,16.51,84,32,0.77,CN,1697329800
367,shingu,33.7333,135.9833,20.52,80,70,1.51,JP,1697329800
368,sibolga,1.7427,98.7792,24.76,89,97,0.81,ID,1697329800
369,touros,-5.1989,-35.4608,25.77,74,40,6.58,BR,1697329801
370,yima,34.7381,111.8839,18.37,49,0,4.19,CN,1697329801
371,khromtau,50.2503,58.4347,3.95,90,24,3.58,KZ,1697329801
372,oujda-angad,34.6805,-1.9076,18.35,63,75,1.54,MA,1697329801
373,lezoux,45.8269,3.3792,9.79,76,40,1.54,FR,1697329801
374,tobelo,1.7284,128.0095,28.74,75,99,1.95,ID,1697329802
375,vadso,70.0744,29.7487,3.09,87,75,9.77,NO,1697329802
376,pyt-yakh,60.7499,72.8582,4.81,88,100,3.74,RU,1697329802
377,fortuna,40.5982,-124.1573,20.51,73,0,4.12,US,1697329803
378,boxberg,49.4814,9.6403,8.6,86,13,2.33,DE,1697329803
379,kangding,30.0513,101.9603,10.13,78,62,1.31,CN,1697329803
380,ciudad lazaro cardenas,17.9583,-102.2,27.46,86,94,2.7,MX,1697329804
381,pama,11.2497,0.7075,26.79,57,10,1.17,BF,1697329804
382,ulsteinvik,62.3432,5.8487,10.42,69,100,4.47,NO,1697329804
383,murray bridge,-35.1167,139.2667,16.74,53,100,5.5,AU,1697329805
384,glen innes,-29.7333,151.7333,24.87,15,0,2.77,AU,1697329805
385,tocache,-8.1842,-76.5125,22.29,90,94,0.93,PE,1697329805
386,yanam,16.7333,82.2167,24.32,85,51,1.15,IN,1697329805
387,howrah,22.5892,88.3103,26.0,89,20,1.54,IN,1697329805
388,ghat,24.9647,10.1728,23.26,26,1,1.22,LY,1697329806
389,veracruz,19.3333,-96.6667,23.88,88,100,0.27,MX,1697329140
390,menongue,-14.6585,17.691,18.44,70,100,2.68,AO,1697329807
391,qusmuryn,52.4503,64.6311,6.65,64,100,4.4,KZ,1697329808
392,nacogdoches,31.6002,-94.6335,16.92,63,0,3.09,US,1697329808
393,la'ie,21.6477,-157.9253,31.66,69,63,3.06,US,1697329809
394,shijiang,27.0819,110.7933,19.85,60,0,0.09,CN,1697329810
395,baoro,5.6667,15.9667,19.44,97,100,1.98,CF,1697329810
396,keflavik,64.0049,-22.5624,4.24,87,100,4.63,IS,1697329810
397,gonabad,34.3529,58.6837,13.42,42,2,0.18,IR,1697329811
398,wangkui,46.8333,126.5,8.23,34,0,8.62,CN,1697329811
399,buharkent,37.964,28.7427,16.01,84,8,0.92,TR,1697329812
400,baganga,7.5739,126.56,29.11,68,58,1.12,PH,1697329812
401,usinsk,65.9939,57.5281,-1.07,98,100,2.24,RU,1697329813
402,isfahan,32.6572,51.6776,10.8,31,0,1.11,IR,1697329813
403,mocimboa,-11.3167,40.35,24.6,93,33,2.78,MZ,1697329814
404,katabu,-4.9333,122.5167,31.63,49,12,3.28,ID,1697329814
405,kosh-agach,50.0,88.6667,5.17,72,100,1.79,RU,1697329815
406,tromso,69.6496,18.957,1.01,75,100,3.6,NO,1697329816
407,filingue,14.3521,3.3168,31.2,22,99,2.36,NE,1697329816
408,menzel bourguiba,37.1537,9.7859,15.96,59,0,0.0,TN,1697329816
409,sola,-13.8833,167.55,29.37,79,75,3.09,VU,1697329817
410,bardai,11.65,7.2333,22.88,35,13,0.6,NG,1697329817
411,rudnichnyy,59.617,52.4703,2.73,94,100,4.84,RU,1697329818
412,isangel,-19.55,169.2667,29.06,70,75,2.57,VU,1697329819
413,port saint john's,-31.6229,29.5448,16.8,71,100,3.94,ZA,1697329819
414,manistee,44.2445,-86.3242,10.03,83,100,3.6,US,1697329805
415,bibai,43.3247,141.8586,18.08,53,97,1.37,JP,1697329820
416,rio grande,-32.035,-52.0986,17.06,72,100,8.18,BR,1697329820
417,sorong,-0.8833,131.25,28.14,76,100,0.57,ID,1697329821
418,ghatkesar,17.4494,78.6853,22.85,80,82,0.9,IN,1697329821
419,belmonte,-15.8631,-38.8828,23.82,88,7,3.04,BR,1697329822
420,tolanaro,-25.0319,46.9987,23.04,88,75,0.0,MG,1697329822
421,lenoir,35.2335,-77.6497,19.16,88,100,2.06,US,1697329823
422,holbrook,40.8123,-73.0784,10.54,95,100,3.09,US,1697329536
423,tyumentsevo,53.3224,81.498,6.83,59,100,4.43,RU,1697329823
424,hilo,19.7297,-155.09,29.03,72,0,4.12,US,1697329824
425,raychikhinsk,49.7838,129.4121,4.51,48,83,8.49,RU,1697329824
426,sitka,57.0531,-135.33,12.94,67,75,0.0,US,1697329825
427,lake havasu city,34.4839,-114.3224,31.7,10,0,1.54,US,1697329825
428,palikir - national government center,6.9248,158.1611,31.41,70,75,2.06,FM,1697329826
429,es castell,39.8795,4.2854,20.38,100,20,2.57,ES,1697329826
430,lukolela,-1.0605,17.1821,21.83,98,100,1.15,CD,1697329826
431,krasnaya gora,52.9995,31.6023,13.69,75,75,3.55,RU,1697329826
432,pangkalpinang,-2.1333,106.1333,26.83,79,82,3.64,ID,1697329556
433,marka,1.7159,44.7717,25.96,89,74,4.98,SO,1697329827
434,benjamin hill,30.1667,-111.1,28.15,33,0,3.9,MX,1697329827
435,kotlas,61.2611,46.6556,5.59,66,100,3.13,RU,1697329827
436,mount pearl,47.5166,-52.7813,11.85,98,75,6.17,CA,1697329827
437,trondheim,63.4305,10.3951,8.05,91,100,1.34,NO,1697329827
438,la passe,45.5549,-0.8967,11.1,65,48,3.02,FR,1697329828
439,paracuru,-3.41,-39.0306,27.28,80,97,5.87,BR,1697329828
440,sao vicente,-23.9631,-46.3919,21.1,26,100,0.89,BR,1697329828
441,chifeng,42.2683,118.9636,9.99,25,0,8.66,CN,1697329828
442,karsun,54.1994,46.9827,9.04,59,78,4.92,RU,1697329828
443,ribadesella,43.4614,-5.0596,15.53,86,100,4.99,ES,1697329829
444,turinsk,58.0458,63.696,4.43,80,14,4.47,RU,1697329829
445,santa marta de ortigueira,43.6833,-7.85,16.81,79,100,8.49,ES,1697329829
446,camiri,-20.05,-63.5167,23.14,55,37,2.2,BO,1697329829
447,vilyuysk,63.7553,121.6247,-5.56,80,22,2.24,RU,1697329829
448,teruel,40.6667,-0.6667,9.64,86,19,1.39,ES,1697329830
449,inaruwa,26.6011,87.1488,21.33,75,0,2.1,NP,1697329830
450,kodinsk,58.6881,99.1844,1.36,84,100,2.83,RU,1697329830
451,axim,4.8699,-2.2405,24.99,93,36,3.27,GH,1697329830
452,nahiyat al fuhud,30.9697,46.7228,28.76,23,0,3.13,IQ,1697329831
453,amahai,-3.3333,128.9167,28.24,78,30,2.28,ID,1697329831
454,morondava,-20.2833,44.2833,25.73,77,86,0.98,MG,1697329831
455,am timan,11.0297,20.2827,25.96,57,100,1.6,TD,1697329831
456,urangan,-25.3,152.9,22.61,72,0,4.95,AU,1697329831
457,robore,-18.3333,-59.75,27.75,45,9,1.53,BO,1697329831
458,ghadamis,30.1337,9.5007,21.65,22,0,4.24,LY,1697329832
459,le vauclin,14.5452,-60.8388,26.03,83,0,1.54,MQ,1697329832
460,coffs harbour,-30.3,153.1333,27.3,53,0,4.63,AU,1697329832
461,shakargarh,32.2623,75.1668,20.3,50,0,1.72,PK,1697329832
462,kone,-21.0595,164.8658,28.45,60,68,1.04,NC,1697329833
463,nadym,65.5333,72.5167,-1.62,92,60,4.18,RU,1697329833
464,'ali sabieh,11.1558,42.7125,27.07,88,29,4.24,DJ,1697329833
465,ar ruseris,11.8659,34.3869,24.67,71,100,3.29,SD,1697329833
466,settat,33.0007,-7.6204,20.9,52,100,2.09,MA,1697329833
467,portstewart,55.1813,-6.714,8.43,66,76,6.84,GB,1697329719
468,piotrkow trybunalski,51.4055,19.7032,8.43,65,99,5.87,PL,1697329834
469,stornoway,58.2093,-6.3865,5.02,89,75,0.89,GB,1697329834
470,sandakan,5.8402,118.1179,26.82,88,20,1.54,MY,1697329834
471,barnesville,33.0546,-84.1557,19.31,76,0,2.57,US,1697329834
472,alupka,44.4167,34.05,17.25,83,0,3.63,UA,1697329835
473,big bend,-26.8167,31.9333,18.27,57,100,2.82,SZ,1697329835
474,soio,-6.1349,12.3689,24.81,84,100,4.73,AO,1697329835
475,kalengwa,-13.4659,25.0027,19.4,80,100,2.06,ZM,1697329835
476,walvis bay,-22.9575,14.5053,13.94,88,0,3.09,NA,1697329790
477,rongelap,11.1635,166.8941,28.44,75,86,3.55,MH,1697329836
478,muravlenko,63.7898,74.523,0.04,81,100,5.59,RU,1697329836
479,padang,-0.9492,100.3543,25.03,88,82,0.46,ID,1697329675
480,uray,60.1247,64.7758,6.04,83,99,6.26,RU,1697329836
481,sandnessjoen,66.0217,12.6316,5.29,74,100,16.33,NO,1697329836
482,tofol,5.3248,163.0078,28.88,79,100,5.14,FM,1697329837
483,piacabucu,-10.4056,-36.4344,25.14,74,15,5.13,BR,1697329837
484,vila velha,-20.3297,-40.2925,21.97,98,75,4.02,BR,1697329837
485,watsa,3.0372,29.5355,18.02,99,42,1.42,CD,1697329837
486,weiser,44.251,-116.9693,22.11,43,99,1.81,US,1697329837
487,itaituba,-4.2761,-55.9836,27.76,46,5,0.89,BR,1697329838
488,korsakov,46.6328,142.7813,9.65,85,100,4.02,RU,1697329838
489,dhuwaran,22.2333,72.8,27.19,57,55,1.57,IN,1697329838
490,dutse,11.7594,9.3392,25.39,28,100,2.12,NG,1697329838
491,sabang,5.8933,95.3214,27.3,78,100,4.91,ID,1697329839
492,san rafael,-34.6177,-68.3301,20.11,23,3,3.26,AR,1697329839
493,upington,-28.4478,21.2561,19.21,32,0,2.57,ZA,1697329562
494,yangjiang,21.85,111.9667,25.05,69,100,3.68,CN,1697329839
495,chiredzi,-21.05,31.6667,20.72,64,100,5.33,ZW,1697329839
496,kirkwood,38.5834,-90.4068,12.86,89,100,4.12,US,1697329542
497,knyaze-volkonskoye,48.4642,135.4567,14.19,65,73,3.58,RU,1697329840
498,puerto deseado,-47.7503,-65.8938,8.18,75,3,5.28,AR,1697329840
499,maxixe,-23.8597,35.3472,21.08,74,92,4.62,MZ,1697329840
500,carolina,18.3808,-65.9574,28.89,86,95,0.45,PR,1697329759
501,saint-philippe,-21.3585,55.7679,21.77,81,43,4.36,RE,1697329840
502,jacksonville beach,30.2947,-81.3931,24.07,82,0,3.09,US,1697329828
503,mandera,3.9366,41.867,28.1,65,85,6.86,KE,1697329841
504,fada,9.5667,8.3,20.24,89,82,0.28,NG,1697329841
505,kalmunai,7.4167,81.8167,24.69,84,34,1.11,LK,1697329841
506,lashio,22.9333,97.75,18.58,92,26,0.38,MM,1697329841
507,singaraja,-8.112,115.0882,30.02,57,3,0.94,ID,1697329842
508,tamandare,-8.7597,-35.1047,24.9,76,89,3.83,BR,1697329842
509,ornskoldsvik,63.2909,18.7153,1.53,80,100,6.69,SE,1697329842
510,lubang,13.8584,120.124,28.4,77,26,7.92,PH,1697329842
511,sao joao da barra,-21.6403,-41.0511,21.05,88,100,3.98,BR,1697329718
512,ha'il,27.5219,41.6907,21.01,21,0,2.06,SA,1697329842
513,eirunepe,-6.6603,-69.8736,25.41,76,38,1.59,BR,1697329843
514,altamira,-3.2033,-52.2064,28.67,51,88,0.59,BR,1697329843
515,bandon,51.7469,-8.7425,4.77,87,19,1.67,IE,1697329843
516,afsin,38.2477,36.914,12.98,55,33,0.7,TR,1697329843
517,bonthe,7.5264,-12.505,25.22,88,100,1.47,SL,1697329843
518,lahad datu,5.0268,118.327,28.43,73,37,2.26,MY,1697329844
519,warrnambool,-38.3833,142.4833,12.61,77,100,7.28,AU,1697329844
520,yabrud,33.9674,36.6574,14.12,65,0,1.86,SY,1697329844
521,renon - ritten,46.5415,11.4573,9.9,93,100,1.6,IT,1697329844
522,reggane,26.7158,0.1714,24.96,22,21,0.74,DZ,1697329844
523,manokwari,-0.8667,134.0833,28.11,73,100,2.46,ID,1697329845
524,dryden,49.7833,-92.7503,6.16,81,0,2.06,CA,1697329845
525,eldoret,0.5204,35.2699,14.05,88,0,5.14,KE,1697329845
526,nishinoomote,30.7333,131.0,22.31,68,20,7.2,JP,1697329845
527,gaspe,48.8334,-64.4819,9.95,93,100,4.12,CA,1697329741
528,bodo,67.28,14.405,5.02,68,100,6.69,NO,1697329846
529,mahenge,-8.6833,36.7167,19.16,90,84,1.71,TZ,1697329846
530,beboto,8.2668,16.939,23.68,86,100,2.75,TD,1697329846
531,khash,28.2211,61.2158,19.02,32,5,0.72,IR,1697329846
532,krasnovishersk,60.4078,57.082,0.86,94,94,2.87,RU,1697329846
533,mutoko,-17.397,32.2268,16.84,81,100,1.81,ZW,1697329846
534,mogocha,53.7333,119.7667,-0.7,55,0,4.02,RU,1697329847
535,bochum,51.4833,7.2167,8.54,75,18,1.34,DE,1697329349
536,santa terezinha,-29.9002,-50.0904,16.72,87,83,7.93,BR,1697329847
537,viedma,-40.8135,-62.9967,15.13,52,100,5.82,AR,1697329834
538,janeng,-25.4167,25.55,14.8,14,99,5.59,BW,1697329847
539,pacocha,-17.5833,-71.3333,17.52,89,86,0.56,PE,1697329848
540,kadnikov,59.5022,40.338,11.01,88,100,6.43,RU,1697329848
541,roxas,11.5853,122.7511,28.41,72,34,1.51,PH,1697329848
542,mysen,59.5535,11.3258,10.56,76,100,2.94,NO,1697329848
543,hadibu,12.65,54.0333,26.67,77,3,1.55,YE,1697329848
544,rawson,-43.3002,-65.1023,13.92,59,51,0.91,AR,1697329849
545,dourbali,11.8091,15.8632,30.17,23,100,3.2,TD,1697329849
546,usogorsk,63.4106,48.6872,2.59,96,100,5.39,RU,1697329849
547,atakpame,7.5333,1.1333,22.89,97,81,1.55,TG,1697329849
548,xining,36.6167,101.7667,6.0,43,0,1.02,CN,1697329849
549,corbu,44.3833,28.65,13.62,94,0,3.09,RO,1697329849
550,nevada,39.2502,-116.7512,13.01,29,91,1.49,US,1697329850
551,yashkul',46.1711,45.3435,12.17,33,0,2.9,RU,1697329850
552,orchard homes,46.8633,-114.0484,15.89,65,100,2.57,US,1697329850
553,viechtach,49.0792,12.8847,10.3,95,99,0.45,DE,1697329850
554,las heras,-46.5419,-68.9359,11.78,40,0,5.72,AR,1697329850
555,laguna,38.421,-121.4238,27.09,37,0,2.57,US,1697329850
